[
   {
      "id":0,
      "category":"clubs",
      "name":"Club Hype",
      "logo":"photos/logos/club-hype.jpg",
      "slug":"club-hype",
      "desc": "Lorem ipsum dolor sit amet, consectetur adipisicing elit. Labore, amet nam a, quam delectus reiciendis sit nobis veritatis? Vitae voluptatem porro, optio eius fugit vero corporis. Alias provident, dolorum a!",
      "address": "Address: Karađorđeva 2-5, Belgrade 11000",
      "lat": "",
      "lng": "",
      "events": [
         {
            "day": "Friday",
            "hours": "11:50PM-4AM",
            "program": "Rnb/Hip Hop"
         },
         {
            "day": "Friday",
            "hours": "11:50PM-4AM",
            "program": "Rnb/Hip Hop"
         },
         {
            "day": "Friday",
            "hours": "11:50PM-4AM",
            "program": "Rnb/Hip Hop"
         }
      ]   
   },
   {
      "id":1,
      "category":"clubs",
      "name":"Club Stefan Braun",
      "logo":"photos/logos/club-stefan-braun.jpg",
      "slug":"club-stefan-braun",
      "desc": "Preporučujemo da vikend započnete malo ranije, u klubu Mr. Stefan Braun! Visoko na devetom spratu zgrade u Nemanjinoj 4, živi jedna posebna vrsta zabave kojom četvrtkom upravljaju Dj Moooka i Dj Gru. Sedma sezona SkyHigh-a donosi nova uzbuđenja svim ljubiteljima R’n’B i Hip-Hop muzike zato rezervišite mesto na vreme!",
      "address": "Address: Karađorđeva 2-5, Belgrade 11000",
      "lat": "",
      "lng": "",
      "events": [
         {
            "day": "Friday",
            "hours": "11:50PM-4AM",
            "program": "Rnb/Hip Hop"
         },
         {
            "day": "Friday",
            "hours": "11:50PM-4AM",
            "program": "Rnb/Hip Hop"
         },
         {
            "day": "Friday",
            "hours": "11:50PM-4AM",
            "program": "Rnb/Hip Hop"
         }
      ]   
   },
   {
      "id":2,
      "category":"clubs",
      "name":"Club Kasina by Community",
      "logo":"photos/logos/club-kasina-by-community.jpg",
      "slug":"club-kasina-by-community",
      "desc": "Lorem ipsum dolor sit amet, consectetur adipisicing elit. Labore, amet nam a, quam delectus reiciendis sit nobis veritatis? Vitae voluptatem porro, optio eius fugit vero corporis. Alias provident, dolorum a!",
      "address": "Address: Karađorđeva 2-5, Belgrade 11000",
      "lat": "",
      "lng": "",
      "events": [
         {
            "day": "Friday",
            "hours": "11:50PM-4AM",
            "program": "Rnb/Hip Hop"
         },
         {
            "day": "Friday",
            "hours": "11:50PM-4AM",
            "program": "Rnb/Hip Hop"
         },
         {
            "day": "Friday",
            "hours": "11:50PM-4AM",
            "program": "Rnb/Hip Hop"
         }
      ]   
   },
   {
      "id":3,
      "category":"clubs",
      "name":"Klub Wurst Platz",
      "logo":"photos/logos/klub-wurst-platz.jpg",
      "slug":"klub-wurst-platz",
      "desc": "Lorem ipsum dolor sit amet, consectetur adipisicing elit. Labore, amet nam a, quam delectus reiciendis sit nobis veritatis? Vitae voluptatem porro, optio eius fugit vero corporis. Alias provident, dolorum a!",
      "address": "Address: Karađorđeva 2-5, Belgrade 11000",
      "lat": "",
      "lng": "",
      "events": [
         {
            "day": "Friday",
            "hours": "11:50PM-4AM",
            "program": "Rnb/Hip Hop"
         },
         {
            "day": "Friday",
            "hours": "11:50PM-4AM",
            "program": "Rnb/Hip Hop"
         },
         {
            "day": "Friday",
            "hours": "11:50PM-4AM",
            "program": "Rnb/Hip Hop"
         }
      ]   
   },
   {
      "id":4,
      "category":"clubs",
      "name":"Klub Čorba Kafe",
      "logo":"photos/logos/klub-corba-kafe.jpg",
      "slug":"klub-corba-kafe",
      "desc": "Lorem ipsum dolor sit amet, consectetur adipisicing elit. Labore, amet nam a, quam delectus reiciendis sit nobis veritatis? Vitae voluptatem porro, optio eius fugit vero corporis. Alias provident, dolorum a!",
      "address": "Address: Karađorđeva 2-5, Belgrade 11000",
      "lat": "",
      "lng": "",
      "events": [
         {
            "day": "Friday",
            "hours": "11:50PM-4AM",
            "program": "Rnb/Hip Hop"
         },
         {
            "day": "Friday",
            "hours": "11:50PM-4AM",
            "program": "Rnb/Hip Hop"
         },
         {
            "day": "Friday",
            "hours": "11:50PM-4AM",
            "program": "Rnb/Hip Hop"
         }
      ]   
   },
   {
      "id":5,
      "category":"clubs",
      "name":"Klub Tramvaj Pub",
      "logo":"photos/logos/klub-tramvaj-pub.jpg",
      "slug":"klub-tramvaj-pub",
      "desc": "Lorem ipsum dolor sit amet, consectetur adipisicing elit. Labore, amet nam a, quam delectus reiciendis sit nobis veritatis? Vitae voluptatem porro, optio eius fugit vero corporis. Alias provident, dolorum a!",
      "address": "Address: Karađorđeva 2-5, Belgrade 11000",
      "lat": "",
      "lng": "",
      "events": [
         {
            "day": "Friday",
            "hours": "11:50PM-4AM",
            "program": "Rnb/Hip Hop"
         },
         {
            "day": "Friday",
            "hours": "11:50PM-4AM",
            "program": "Rnb/Hip Hop"
         },
         {
            "day": "Friday",
            "hours": "11:50PM-4AM",
            "program": "Rnb/Hip Hop"
         }
      ]   
   },
   {
      "id":6,
      "category":"clubs",
      "name":"Klub Gajba",
      "logo":"photos/logos/klub-gajba.jpg",
      "slug":"klub-gajba",
      "desc": "Lorem ipsum dolor sit amet, consectetur adipisicing elit. Labore, amet nam a, quam delectus reiciendis sit nobis veritatis? Vitae voluptatem porro, optio eius fugit vero corporis. Alias provident, dolorum a!",
      "address": "Address: Karađorđeva 2-5, Belgrade 11000",
      "lat": "",
      "lng": "",
      "events": [
         {
            "day": "Friday",
            "hours": "11:50PM-4AM",
            "program": "Rnb/Hip Hop"
         },
         {
            "day": "Friday",
            "hours": "11:50PM-4AM",
            "program": "Rnb/Hip Hop"
         },
         {
            "day": "Friday",
            "hours": "11:50PM-4AM",
            "program": "Rnb/Hip Hop"
         }
      ]   
   },
   {
      "id":7,
      "category":"clubs",
      "name":"Club Ludost",
      "logo":"photos/logos/club-ludost.jpg",
      "slug":"club-ludost",
      "desc": "Lorem ipsum dolor sit amet, consectetur adipisicing elit. Labore, amet nam a, quam delectus reiciendis sit nobis veritatis? Vitae voluptatem porro, optio eius fugit vero corporis. Alias provident, dolorum a!",
      "address": "Address: Karađorđeva 2-5, Belgrade 11000",
      "lat": "",
      "lng": "",
      "events": [
         {
            "day": "Friday",
            "hours": "11:50PM-4AM",
            "program": "Rnb/Hip Hop"
         },
         {
            "day": "Friday",
            "hours": "11:50PM-4AM",
            "program": "Rnb/Hip Hop"
         },
         {
            "day": "Friday",
            "hours": "11:50PM-4AM",
            "program": "Rnb/Hip Hop"
         }
      ]   
   },
   {
      "id":8,
      "category":"clubs",
      "name":"Brod Sava",
      "logo":"photos/logos/brod-sava.jpg",
      "slug":"brod-sava",
      "desc": "Lorem ipsum dolor sit amet, consectetur adipisicing elit. Labore, amet nam a, quam delectus reiciendis sit nobis veritatis? Vitae voluptatem porro, optio eius fugit vero corporis. Alias provident, dolorum a!",
      "address": "Address: Karađorđeva 2-5, Belgrade 11000",
      "lat": "",
      "lng": "",
      "events": [
         {
            "day": "Friday",
            "hours": "11:50PM-4AM",
            "program": "Rnb/Hip Hop"
         },
         {
            "day": "Friday",
            "hours": "11:50PM-4AM",
            "program": "Rnb/Hip Hop"
         },
         {
            "day": "Friday",
            "hours": "11:50PM-4AM",
            "program": "Rnb/Hip Hop"
         }
      ]   
   },
   {
      "id":9,
      "category":"clubs",
      "name":"Square Club",
      "logo":"photos/logos/square-club.jpg",
      "slug":"square-club",
      "desc": "Ukoliko želite da se opustite uz popularne zvuke 90ih, onda je jedan od novijih beogradskih klubova, klub Square, mesto gde ćete maksimalno uživati. Ne dopustite da vam drugi prepričavaju, rezervišite svoje mesto i uživajte u čarima noćnog života Beograda. Rezervacije besplatne ali obavezne!",
      "address": "Address: Karađorđeva 2-5, Belgrade 11000",
      "lat": "",
      "lng": "",
      "events": [
         {
            "day": "Friday",
            "hours": "11:50PM-4AM",
            "program": "Rnb/Hip Hop"
         },
         {
            "day": "Friday",
            "hours": "11:50PM-4AM",
            "program": "Rnb/Hip Hop"
         },
         {
            "day": "Friday",
            "hours": "11:50PM-4AM",
            "program": "Rnb/Hip Hop"
         }
      ]   
   },
   {
      "id":10,
      "category":"clubs",
      "name":"Club Brankow",
      "logo":"photos/logos/club-brankow.jpg",
      "slug":"club-brankow",
      "desc": "Klub Brankow najbolji je internacionalni i lokalni deep house i disko DJ klub uBeogradu. Pored nesvakidašnje unutrašnjost kluba, (mešavina njujorškog, londonskog i berlinskog stila), uživaćete i u sjajnim koktelima, bogatoj selekciji vina, ljubaznom osoblju i neverovatnoj atmosferi. Rezervacije besplatne ali obavezne!",
      "address": "Address: Karađorđeva 2-5, Belgrade 11000",
      "lat": "",
      "lng": "",
      "events": [
         {
            "day": "Friday",
            "hours": "11:50PM-4AM",
            "program": "Rnb/Hip Hop"
         },
         {
            "day": "Friday",
            "hours": "11:50PM-4AM",
            "program": "Rnb/Hip Hop"
         },
         {
            "day": "Friday",
            "hours": "11:50PM-4AM",
            "program": "Rnb/Hip Hop"
         }
      ]   
   },
   {
      "id":12,
      "category":"clubs",
      "name":"Klub Martinez",
      "logo":"photos/logos/klub-martinez.jpg",
      "slug":"klub-martinez",
      "desc": "Nešto novo u popularnoj Savamali, nešto što će vas potpuno razdrmati, enterijer, devojke, muzika, energija, osetite pravi duh Beograda u popularnom Martinez Baru. Rezervišite Vaše mesto na vreme i uživajte u domaćim i stranim Dj izvođačima. Rezevracije su besplatne i obavezne!",
      "address": "Address: Karađorđeva 2-5, Belgrade 11000",
      "lat": "",
      "lng": "",
      "events": [
         {
            "day": "Friday",
            "hours": "11:50PM-4AM",
            "program": "Rnb/Hip Hop"
         },
         {
            "day": "Friday",
            "hours": "11:50PM-4AM",
            "program": "Rnb/Hip Hop"
         },
         {
            "day": "Friday",
            "hours": "11:50PM-4AM",
            "program": "Rnb/Hip Hop"
         }
      ]   
   },
   {
      "id":13,
      "category":"clubs",
      "name":"Club Ben Akiba",
      "logo":"photos/logos/club-ben-akiba.jpg",
      "slug":"club-ben-akiba",
      "desc": "Lorem ipsum dolor sit amet, consectetur adipisicing elit. Labore, amet nam a, quam delectus reiciendis sit nobis veritatis? Vitae voluptatem porro, optio eius fugit vero corporis. Alias provident, dolorum a!",
      "address": "Address: Karađorđeva 2-5, Belgrade 11000",
      "lat": "",
      "lng": "",
      "events": [
         {
            "day": "Friday",
            "hours": "11:50PM-4AM",
            "program": "Rnb/Hip Hop"
         },
         {
            "day": "Friday",
            "hours": "11:50PM-4AM",
            "program": "Rnb/Hip Hop"
         },
         {
            "day": "Friday",
            "hours": "11:50PM-4AM",
            "program": "Rnb/Hip Hop"
         }
      ]   
   },
   {
      "id":18,
      "category":"clubs",
      "name":"Club Mladost",
      "logo":"photos/logos/club-mladost.jpg",
      "slug":"club-mladost",
      "desc": "Lorem ipsum dolor sit amet, consectetur adipisicing elit. Labore, amet nam a, quam delectus reiciendis sit nobis veritatis? Vitae voluptatem porro, optio eius fugit vero corporis. Alias provident, dolorum a!",
      "address": "Address: Karađorđeva 2-5, Belgrade 11000",
      "lat": "",
      "lng": "",
      "events": [
         {
            "day": "Friday",
            "hours": "11:50PM-4AM",
            "program": "Rnb/Hip Hop"
         },
         {
            "day": "Friday",
            "hours": "11:50PM-4AM",
            "program": "Rnb/Hip Hop"
         },
         {
            "day": "Friday",
            "hours": "11:50PM-4AM",
            "program": "Rnb/Hip Hop"
         }
      ]   
   },
   {
      "id":21,
      "category":"clubs",
      "name":"Klub Hram",
      "logo":"photos/logos/klub-hram.jpg",
      "slug":"klub-hram",
      "desc": "Lorem ipsum dolor sit amet, consectetur adipisicing elit. Labore, amet nam a, quam delectus reiciendis sit nobis veritatis? Vitae voluptatem porro, optio eius fugit vero corporis. Alias provident, dolorum a!",
      "address": "Address: Karađorđeva 2-5, Belgrade 11000",
      "lat": "",
      "lng": "",
      "events": [
         {
            "day": "Friday",
            "hours": "11:50PM-4AM",
            "program": "Rnb/Hip Hop"
         },
         {
            "day": "Friday",
            "hours": "11:50PM-4AM",
            "program": "Rnb/Hip Hop"
         },
         {
            "day": "Friday",
            "hours": "11:50PM-4AM",
            "program": "Rnb/Hip Hop"
         }
      ]   
   },
   {
      "id":22,
      "category":"clubs",
      "name":"Club Freestyler",
      "logo":"photos/logos/club-freestyler.jpg",
      "slug":"club-freestyler",
      "desc": "Lorem ipsum dolor sit amet, consectetur adipisicing elit. Labore, amet nam a, quam delectus reiciendis sit nobis veritatis? Vitae voluptatem porro, optio eius fugit vero corporis. Alias provident, dolorum a!",
      "address": "Address: Karađorđeva 2-5, Belgrade 11000",
      "lat": "",
      "lng": "",
      "events": [
         {
            "day": "Friday",
            "hours": "11:50PM-4AM",
            "program": "Rnb/Hip Hop"
         },
         {
            "day": "Friday",
            "hours": "11:50PM-4AM",
            "program": "Rnb/Hip Hop"
         },
         {
            "day": "Friday",
            "hours": "11:50PM-4AM",
            "program": "Rnb/Hip Hop"
         }
      ]   
   },
   {
      "id":24,
      "category":"clubs",
      "name":"The Bank Club",
      "logo":"photos/logos/the-bank-club.jpg",
      "slug":"the-bank-club",
      "desc": "Lorem ipsum dolor sit amet, consectetur adipisicing elit. Labore, amet nam a, quam delectus reiciendis sit nobis veritatis? Vitae voluptatem porro, optio eius fugit vero corporis. Alias provident, dolorum a!",
      "address": "Address: Karađorđeva 2-5, Belgrade 11000",
      "lat": "",
      "lng": "",
      "events": [
         {
            "day": "Friday",
            "hours": "11:50PM-4AM",
            "program": "Rnb/Hip Hop"
         },
         {
            "day": "Friday",
            "hours": "11:50PM-4AM",
            "program": "Rnb/Hip Hop"
         },
         {
            "day": "Friday",
            "hours": "11:50PM-4AM",
            "program": "Rnb/Hip Hop"
         }
      ]   
   },
   {
      "id":28,
      "category":"clubs",
      "name":"Industrija Bar",
      "logo":"photos/logos/industrija-bar.jpg",
      "slug":"industrija-bar",
      "desc": "Lorem ipsum dolor sit amet, consectetur adipisicing elit. Labore, amet nam a, quam delectus reiciendis sit nobis veritatis? Vitae voluptatem porro, optio eius fugit vero corporis. Alias provident, dolorum a!",
      "address": "Address: Karađorđeva 2-5, Belgrade 11000",
      "lat": "",
      "lng": "",
      "events": [
         {
            "day": "Friday",
            "hours": "11:50PM-4AM",
            "program": "Rnb/Hip Hop"
         },
         {
            "day": "Friday",
            "hours": "11:50PM-4AM",
            "program": "Rnb/Hip Hop"
         },
         {
            "day": "Friday",
            "hours": "11:50PM-4AM",
            "program": "Rnb/Hip Hop"
         }
      ]   
   },
   {
      "id":30,
      "category":"clubs",
      "name":"Club Gotik",
      "logo":"photos/logos/club-gotik.jpg",
      "slug":"club-gotik",
      "desc": "Lorem ipsum dolor sit amet, consectetur adipisicing elit. Labore, amet nam a, quam delectus reiciendis sit nobis veritatis? Vitae voluptatem porro, optio eius fugit vero corporis. Alias provident, dolorum a!",
      "address": "Address: Karađorđeva 2-5, Belgrade 11000",
      "lat": "",
      "lng": "",
      "events": [
         {
            "day": "Friday",
            "hours": "11:50PM-4AM",
            "program": "Rnb/Hip Hop"
         },
         {
            "day": "Friday",
            "hours": "11:50PM-4AM",
            "program": "Rnb/Hip Hop"
         },
         {
            "day": "Friday",
            "hours": "11:50PM-4AM",
            "program": "Rnb/Hip Hop"
         }
      ]   
   },
   {
      "id":40,
      "category":"clubs",
      "name":"Club Bitef Art Cafe",
      "logo":"photos/logos/club-bitef-art-cafe.jpg",
      "slug":"club-bitef-art-cafe",
      "desc": "Lorem ipsum dolor sit amet, consectetur adipisicing elit. Labore, amet nam a, quam delectus reiciendis sit nobis veritatis? Vitae voluptatem porro, optio eius fugit vero corporis. Alias provident, dolorum a!",
      "address": "Address: Karađorđeva 2-5, Belgrade 11000",
      "lat": "",
      "lng": "",
      "events": [
         {
            "day": "Friday",
            "hours": "11:50PM-4AM",
            "program": "Rnb/Hip Hop"
         },
         {
            "day": "Friday",
            "hours": "11:50PM-4AM",
            "program": "Rnb/Hip Hop"
         },
         {
            "day": "Friday",
            "hours": "11:50PM-4AM",
            "program": "Rnb/Hip Hop"
         }
      ]   
   },
   {
      "id":41,
      "category":"clubs",
      "name":"Klub Soul Society",
      "logo":"photos/logos/klub-soul-society.jpg",
      "slug":"klub-soul-society",
      "desc": "Lorem ipsum dolor sit amet, consectetur adipisicing elit. Labore, amet nam a, quam delectus reiciendis sit nobis veritatis? Vitae voluptatem porro, optio eius fugit vero corporis. Alias provident, dolorum a!",
      "address": "Address: Karađorđeva 2-5, Belgrade 11000",
      "lat": "",
      "lng": "",
      "events": [
         {
            "day": "Friday",
            "hours": "11:50PM-4AM",
            "program": "Rnb/Hip Hop"
         },
         {
            "day": "Friday",
            "hours": "11:50PM-4AM",
            "program": "Rnb/Hip Hop"
         },
         {
            "day": "Friday",
            "hours": "11:50PM-4AM",
            "program": "Rnb/Hip Hop"
         }
      ]   
   },
   {
      "id":49,
      "category":"clubs",
      "name":"Club Rush",
      "logo":"photos/logos/club-rush.jpg",
      "slug":"club-rush",
      "desc": "Lorem ipsum dolor sit amet, consectetur adipisicing elit. Labore, amet nam a, quam delectus reiciendis sit nobis veritatis? Vitae voluptatem porro, optio eius fugit vero corporis. Alias provident, dolorum a!",
      "address": "Address: Karađorđeva 2-5, Belgrade 11000",
      "lat": "",
      "lng": "",
      "events": [
         {
            "day": "Friday",
            "hours": "11:50PM-4AM",
            "program": "Rnb/Hip Hop"
         },
         {
            "day": "Friday",
            "hours": "11:50PM-4AM",
            "program": "Rnb/Hip Hop"
         },
         {
            "day": "Friday",
            "hours": "11:50PM-4AM",
            "program": "Rnb/Hip Hop"
         }
      ]   
   },
   {
      "id":50,
      "category":"clubs",
      "name":"Dot Club",
      "logo":"photos/logos/dot-club.jpg",
      "slug":"dot-club",
      "desc": "Lorem ipsum dolor sit amet, consectetur adipisicing elit. Labore, amet nam a, quam delectus reiciendis sit nobis veritatis? Vitae voluptatem porro, optio eius fugit vero corporis. Alias provident, dolorum a!",
      "address": "Address: Karađorđeva 2-5, Belgrade 11000",
      "lat": "",
      "lng": "",
      "events": [
         {
            "day": "Friday",
            "hours": "11:50PM-4AM",
            "program": "Rnb/Hip Hop"
         },
         {
            "day": "Friday",
            "hours": "11:50PM-4AM",
            "program": "Rnb/Hip Hop"
         },
         {
            "day": "Friday",
            "hours": "11:50PM-4AM",
            "program": "Rnb/Hip Hop"
         }
      ]   
   },
   {
      "id":54,
      "category":"clubs",
      "name":"Splav Hua Hua",
      "logo":"photos/logos/splav-hua-hua.jpg",
      "slug":"splav-hua-hua",
      "desc": "Lorem ipsum dolor sit amet, consectetur adipisicing elit. Labore, amet nam a, quam delectus reiciendis sit nobis veritatis? Vitae voluptatem porro, optio eius fugit vero corporis. Alias provident, dolorum a!",
      "address": "Address: Karađorđeva 2-5, Belgrade 11000",
      "lat": "",
      "lng": "",
      "events": [
         {
            "day": "Friday",
            "hours": "11:50PM-4AM",
            "program": "Rnb/Hip Hop"
         },
         {
            "day": "Friday",
            "hours": "11:50PM-4AM",
            "program": "Rnb/Hip Hop"
         },
         {
            "day": "Friday",
            "hours": "11:50PM-4AM",
            "program": "Rnb/Hip Hop"
         }
      ]   
   },
   {
      "id":10,
      "category":"taverns",
      "name":"Tavern Stara Pesma",
      "logo":"photos/logos/tavern-stara-pesma.jpg",
      "slug":"tavern-stara-pesma",
      "desc": "Kafana Stara Pesma na beogradskom sajmu garantuje dobar provod četvrtkom kada vas zabavljaju Meda i Ivana Bojanović. Najbolji folk hitovi uživo, pozitivna atmosfera, sjajan kafanski enterijer i usluga garantuju dobar provod do ranih časova. Ulaz i rezervacije besplatne ali obavezne!",
      "address": "Address: Karađorđeva 2-5, Belgrade 11000",
      "lat": "",
      "lng": "",
      "events": [
         {
            "day": "Friday",
            "hours": "11:50PM-4AM",
            "program": "Rnb/Hip Hop"
         },
         {
            "day": "Friday",
            "hours": "11:50PM-4AM",
            "program": "Rnb/Hip Hop"
         },
         {
            "day": "Friday",
            "hours": "11:50PM-4AM",
            "program": "Rnb/Hip Hop"
         }
      ]   
   },
   {
      "id":11,
      "category":"taverns",
      "name":"Tavern Ona Moja",
      "logo":"photos/logos/tavern-ona-moja.jpg",
      "slug":"tavern-ona-moja",
      "desc": "Lorem ipsum dolor sit amet, consectetur adipisicing elit. Labore, amet nam a, quam delectus reiciendis sit nobis veritatis? Vitae voluptatem porro, optio eius fugit vero corporis. Alias provident, dolorum a!",
      "address": "Address: Karađorđeva 2-5, Belgrade 11000",
      "lat": "",
      "lng": "",
      "events": [
         {
            "day": "Friday",
            "hours": "11:50PM-4AM",
            "program": "Rnb/Hip Hop"
         },
         {
            "day": "Friday",
            "hours": "11:50PM-4AM",
            "program": "Rnb/Hip Hop"
         },
         {
            "day": "Friday",
            "hours": "11:50PM-4AM",
            "program": "Rnb/Hip Hop"
         }
      ]   
   },
   {
      "id":12,
      "category":"taverns",
      "name":"Tavern Konoba Akustik",
      "logo":"photos/logos/tavern-konoba-akustik.jpg",
      "slug":"tavern-konoba-akustik",
      "desc": "Autentični etno ambijent, domaća kuhinja, roštilj na ćumur, popularne cene, centar grada. I sve to uz akustične tamburaše svakog četvrtka da ugođaj u večeri bude potpun. Rezervacije su obavezne.",
      "address": "Address: Karađorđeva 2-5, Belgrade 11000",
      "lat": "",
      "lng": "",
      "events": [
         {
            "day": "Friday",
            "hours": "11:50PM-4AM",
            "program": "Rnb/Hip Hop"
         },
         {
            "day": "Friday",
            "hours": "11:50PM-4AM",
            "program": "Rnb/Hip Hop"
         },
         {
            "day": "Friday",
            "hours": "11:50PM-4AM",
            "program": "Rnb/Hip Hop"
         }
      ]   
   },
   {
      "id":13,
      "category":"taverns",
      "name":"Tavern Staro Drvce",
      "logo":"photos/logos/tavern-staro-drvce.jpg",
      "slug":"tavern-staro-drvce",
      "desc": "Lorem ipsum dolor sit amet, consectetur adipisicing elit. Labore, amet nam a, quam delectus reiciendis sit nobis veritatis? Vitae voluptatem porro, optio eius fugit vero corporis. Alias provident, dolorum a!",
      "address": "Address: Karađorđeva 2-5, Belgrade 11000",
      "lat": "",
      "lng": "",
      "events": [
         {
            "day": "Friday",
            "hours": "11:50PM-4AM",
            "program": "Rnb/Hip Hop"
         },
         {
            "day": "Friday",
            "hours": "11:50PM-4AM",
            "program": "Rnb/Hip Hop"
         },
         {
            "day": "Friday",
            "hours": "11:50PM-4AM",
            "program": "Rnb/Hip Hop"
         }
      ]   
   },
   {
      "id":14,
      "category":"taverns",
      "name":"Tavern Hodač",
      "logo":"photos/logos/tavern-hodac.jpg",
      "slug":"tavern-hodac",
      "desc": "Lorem ipsum dolor sit amet, consectetur adipisicing elit. Labore, amet nam a, quam delectus reiciendis sit nobis veritatis? Vitae voluptatem porro, optio eius fugit vero corporis. Alias provident, dolorum a!",
      "address": "Address: Karađorđeva 2-5, Belgrade 11000",
      "lat": "",
      "lng": "",
      "events": [
         {
            "day": "Friday",
            "hours": "11:50PM-4AM",
            "program": "Rnb/Hip Hop"
         },
         {
            "day": "Friday",
            "hours": "11:50PM-4AM",
            "program": "Rnb/Hip Hop"
         },
         {
            "day": "Friday",
            "hours": "11:50PM-4AM",
            "program": "Rnb/Hip Hop"
         }
      ]   
   },
   {
      "id":15,
      "category":"taverns",
      "name":"Tavern Korčagin",
      "logo":"photos/logos/tavern-korcagin.jpg",
      "slug":"tavern-korcagin",
      "desc": "Lorem ipsum dolor sit amet, consectetur adipisicing elit. Labore, amet nam a, quam delectus reiciendis sit nobis veritatis? Vitae voluptatem porro, optio eius fugit vero corporis. Alias provident, dolorum a!",
      "address": "Address: Karađorđeva 2-5, Belgrade 11000",
      "lat": "",
      "lng": "",
      "events": [
         {
            "day": "Friday",
            "hours": "11:50PM-4AM",
            "program": "Rnb/Hip Hop"
         },
         {
            "day": "Friday",
            "hours": "11:50PM-4AM",
            "program": "Rnb/Hip Hop"
         },
         {
            "day": "Friday",
            "hours": "11:50PM-4AM",
            "program": "Rnb/Hip Hop"
         }
      ]   
   },
   {
      "id":16,
      "category":"taverns",
      "name":"Tavern Limun Žut",
      "logo":"photos/logos/tavern-limun-zut.jpg",
      "slug":"tavern-limun-zut",
      "desc": "Lorem ipsum dolor sit amet, consectetur adipisicing elit. Labore, amet nam a, quam delectus reiciendis sit nobis veritatis? Vitae voluptatem porro, optio eius fugit vero corporis. Alias provident, dolorum a!",
      "address": "Address: Karađorđeva 2-5, Belgrade 11000",
      "lat": "",
      "lng": "",
      "events": [
         {
            "day": "Friday",
            "hours": "11:50PM-4AM",
            "program": "Rnb/Hip Hop"
         },
         {
            "day": "Friday",
            "hours": "11:50PM-4AM",
            "program": "Rnb/Hip Hop"
         },
         {
            "day": "Friday",
            "hours": "11:50PM-4AM",
            "program": "Rnb/Hip Hop"
         }
      ]   
   },
   {
      "id":17,
      "category":"taverns",
      "name":"Tavern Mala Maca",
      "logo":"photos/logos/tavern-mala-maca.jpg",
      "slug":"tavern-mala-maca",
      "desc": "Lorem ipsum dolor sit amet, consectetur adipisicing elit. Labore, amet nam a, quam delectus reiciendis sit nobis veritatis? Vitae voluptatem porro, optio eius fugit vero corporis. Alias provident, dolorum a!",
      "address": "Address: Karađorđeva 2-5, Belgrade 11000",
      "lat": "",
      "lng": "",
      "events": [
         {
            "day": "Friday",
            "hours": "11:50PM-4AM",
            "program": "Rnb/Hip Hop"
         },
         {
            "day": "Friday",
            "hours": "11:50PM-4AM",
            "program": "Rnb/Hip Hop"
         },
         {
            "day": "Friday",
            "hours": "11:50PM-4AM",
            "program": "Rnb/Hip Hop"
         }
      ]   
   },
   {
      "id":18,
      "category":"taverns",
      "name":"Tavern Jazbina",
      "logo":"photos/logos/tavern-jazbina.jpg",
      "slug":"tavern-jazbina",
      "desc": "Lorem ipsum dolor sit amet, consectetur adipisicing elit. Labore, amet nam a, quam delectus reiciendis sit nobis veritatis? Vitae voluptatem porro, optio eius fugit vero corporis. Alias provident, dolorum a!",
      "address": "Address: Karađorđeva 2-5, Belgrade 11000",
      "lat": "",
      "lng": "",
      "events": [
         {
            "day": "Friday",
            "hours": "11:50PM-4AM",
            "program": "Rnb/Hip Hop"
         },
         {
            "day": "Friday",
            "hours": "11:50PM-4AM",
            "program": "Rnb/Hip Hop"
         },
         {
            "day": "Friday",
            "hours": "11:50PM-4AM",
            "program": "Rnb/Hip Hop"
         }
      ]   
   },
   {
      "id":111,
      "category":"taverns",
      "name":"Gradska Kafana",
      "logo":"photos/logos/gradska-kafana.jpg",
      "slug":"gradska-kafana",
      "desc": "Novi Beograd i ove zimske sezone nudi fenomenalan kafanski provod, provod u Gradskoj kafani. Rezervišite vaše mesto na vreme i uverite se zašto se o ovoj kafani toliko priča! Rezervacije besplatne ali obavezne!",
      "address": "Address: Karađorđeva 2-5, Belgrade 11000",
      "lat": "",
      "lng": "",
      "events": [
         {
            "day": "Friday",
            "hours": "11:50PM-4AM",
            "program": "Rnb/Hip Hop"
         },
         {
            "day": "Friday",
            "hours": "11:50PM-4AM",
            "program": "Rnb/Hip Hop"
         },
         {
            "day": "Friday",
            "hours": "11:50PM-4AM",
            "program": "Rnb/Hip Hop"
         }
      ]   
   },
   {
      "id":112,
      "category":"taverns",
      "name":"Kafana Pukni Zoro",
      "logo":"photos/logos/kafana-pukni-zoro.jpg",
      "slug":"kafana-pukni-zoro",
      "desc": "U jednom od najlepših delova Zemuna očekuje vas kafana Pukni Zoro, mesto za sve ljubitelje kafane, dobrog provoda i boemskog života. Ovog četvrtka za vaše raspoloženje zadužen je Srećko Krečar, zato navratite i vi jer najgore što može da vam se desi je da se super provedete!",
      "address": "Address: Karađorđeva 2-5, Belgrade 11000",
      "lat": "",
      "lng": "",
      "events": [
         {
            "day": "Friday",
            "hours": "11:50PM-4AM",
            "program": "Rnb/Hip Hop"
         },
         {
            "day": "Friday",
            "hours": "11:50PM-4AM",
            "program": "Rnb/Hip Hop"
         },
         {
            "day": "Friday",
            "hours": "11:50PM-4AM",
            "program": "Rnb/Hip Hop"
         }
      ]   
   },
   {
      "id":113,
      "category":"taverns",
      "name":"Kafana Druga Kuća",
      "logo":"photos/logos/kafana-druga-kuća.jpg",
      "slug":"kafana-druga-kuća",
      "desc": "Nova sezona kafane Druga Kuća ali i dalje odlične svirke i uvek veseli gosti! Muzika je ozvučena, tako da je živo u svakom delu kafane. Njihova parola je \"Nije pijanstvo ako te posle nije 3 dana sramota!\" pa se i od vas očekuje da se ponašate u skladu sa parolom :) zato rezervišite mesto na vreme uz akciju flaša na flašu!",
      "address": "Address: Karađorđeva 2-5, Belgrade 11000",
      "lat": "",
      "lng": "",
      "events": [
         {
            "day": "Friday",
            "hours": "11:50PM-4AM",
            "program": "Rnb/Hip Hop"
         },
         {
            "day": "Friday",
            "hours": "11:50PM-4AM",
            "program": "Rnb/Hip Hop"
         },
         {
            "day": "Friday",
            "hours": "11:50PM-4AM",
            "program": "Rnb/Hip Hop"
         }
      ]   
   },
   {
      "id":123,
      "category":"taverns",
      "name":"Kafana Cosa Nostra",
      "logo":"photos/logos/kafana-cosa-nostra.jpg",
      "slug":"kafana-cosa-nostra",
      "desc": "Lorem ipsum dolor sit amet, consectetur adipisicing elit. Labore, amet nam a, quam delectus reiciendis sit nobis veritatis? Vitae voluptatem porro, optio eius fugit vero corporis. Alias provident, dolorum a!",
      "address": "Address: Karađorđeva 2-5, Belgrade 11000",
      "lat": "",
      "lng": "",
      "events": [
         {
            "day": "Friday",
            "hours": "11:50PM-4AM",
            "program": "Rnb/Hip Hop"
         },
         {
            "day": "Friday",
            "hours": "11:50PM-4AM",
            "program": "Rnb/Hip Hop"
         },
         {
            "day": "Friday",
            "hours": "11:50PM-4AM",
            "program": "Rnb/Hip Hop"
         }
      ]   
   },
   {
      "id":125,
      "category":"taverns",
      "name":"Kafana Bajka",
      "logo":"photos/logos/kafana-bajka.jpg",
      "slug":"kafana-bajka",
      "desc": "Lorem ipsum dolor sit amet, consectetur adipisicing elit. Labore, amet nam a, quam delectus reiciendis sit nobis veritatis? Vitae voluptatem porro, optio eius fugit vero corporis. Alias provident, dolorum a!",
      "address": "Address: Karađorđeva 2-5, Belgrade 11000",
      "lat": "",
      "lng": "",
      "events": [
         {
            "day": "Friday",
            "hours": "11:50PM-4AM",
            "program": "Rnb/Hip Hop"
         },
         {
            "day": "Friday",
            "hours": "11:50PM-4AM",
            "program": "Rnb/Hip Hop"
         },
         {
            "day": "Friday",
            "hours": "11:50PM-4AM",
            "program": "Rnb/Hip Hop"
         }
      ]   
   },
   {
      "id":127,
      "category":"taverns",
      "name":"Tavern Sokače",
      "logo":"photos/logos/tavern-sokace.jpg",
      "slug":"tavern-sokace",
      "desc": "Lorem ipsum dolor sit amet, consectetur adipisicing elit. Labore, amet nam a, quam delectus reiciendis sit nobis veritatis? Vitae voluptatem porro, optio eius fugit vero corporis. Alias provident, dolorum a!",
      "address": "Address: Karađorđeva 2-5, Belgrade 11000",
      "lat": "",
      "lng": "",
      "events": [
         {
            "day": "Friday",
            "hours": "11:50PM-4AM",
            "program": "Rnb/Hip Hop"
         },
         {
            "day": "Friday",
            "hours": "11:50PM-4AM",
            "program": "Rnb/Hip Hop"
         },
         {
            "day": "Friday",
            "hours": "11:50PM-4AM",
            "program": "Rnb/Hip Hop"
         }
      ]   
   },
   {
      "id":134,
      "category":"taverns",
      "name":"Kafana Švaler",
      "logo":"photos/logos/kafana-svaler.jpg",
      "slug":"kafana-svaler",
      "desc": "Lorem ipsum dolor sit amet, consectetur adipisicing elit. Labore, amet nam a, quam delectus reiciendis sit nobis veritatis? Vitae voluptatem porro, optio eius fugit vero corporis. Alias provident, dolorum a!",
      "address": "Address: Karađorđeva 2-5, Belgrade 11000",
      "lat": "",
      "lng": "",
      "events": [
         {
            "day": "Friday",
            "hours": "11:50PM-4AM",
            "program": "Rnb/Hip Hop"
         },
         {
            "day": "Friday",
            "hours": "11:50PM-4AM",
            "program": "Rnb/Hip Hop"
         },
         {
            "day": "Friday",
            "hours": "11:50PM-4AM",
            "program": "Rnb/Hip Hop"
         }
      ]   
   },
   {
      "id":139,
      "category":"taverns",
      "name":"Kafana Teatro",
      "logo":"photos/logos/kafana-teatro.jpg",
      "slug":"kafana-teatro",
      "desc": "Lorem ipsum dolor sit amet, consectetur adipisicing elit. Labore, amet nam a, quam delectus reiciendis sit nobis veritatis? Vitae voluptatem porro, optio eius fugit vero corporis. Alias provident, dolorum a!",
      "address": "Address: Karađorđeva 2-5, Belgrade 11000",
      "lat": "",
      "lng": "",
      "events": [
         {
            "day": "Friday",
            "hours": "11:50PM-4AM",
            "program": "Rnb/Hip Hop"
         },
         {
            "day": "Friday",
            "hours": "11:50PM-4AM",
            "program": "Rnb/Hip Hop"
         },
         {
            "day": "Friday",
            "hours": "11:50PM-4AM",
            "program": "Rnb/Hip Hop"
         }
      ]   
   },
   {
      "id":140,
      "category":"taverns",
      "name":"Kafana Moj Grad",
      "logo":"photos/logos/kafana-moj-grad.jpg",
      "slug":"kafana-moj-grad",
      "desc": "Lorem ipsum dolor sit amet, consectetur adipisicing elit. Labore, amet nam a, quam delectus reiciendis sit nobis veritatis? Vitae voluptatem porro, optio eius fugit vero corporis. Alias provident, dolorum a!",
      "address": "Address: Karađorđeva 2-5, Belgrade 11000",
      "lat": "",
      "lng": "",
      "events": [
         {
            "day": "Friday",
            "hours": "11:50PM-4AM",
            "program": "Rnb/Hip Hop"
         },
         {
            "day": "Friday",
            "hours": "11:50PM-4AM",
            "program": "Rnb/Hip Hop"
         },
         {
            "day": "Friday",
            "hours": "11:50PM-4AM",
            "program": "Rnb/Hip Hop"
         }
      ]   
   },
   {
      "id":142,
      "category":"taverns",
      "name":"Kafana Gaučosi",
      "logo":"photos/logos/kafana-gaucosi.jpg",
      "slug":"kafana-gaucosi",
      "desc": "Lorem ipsum dolor sit amet, consectetur adipisicing elit. Labore, amet nam a, quam delectus reiciendis sit nobis veritatis? Vitae voluptatem porro, optio eius fugit vero corporis. Alias provident, dolorum a!",
      "address": "Address: Karađorđeva 2-5, Belgrade 11000",
      "lat": "",
      "lng": "",
      "events": [
         {
            "day": "Friday",
            "hours": "11:50PM-4AM",
            "program": "Rnb/Hip Hop"
         },
         {
            "day": "Friday",
            "hours": "11:50PM-4AM",
            "program": "Rnb/Hip Hop"
         },
         {
            "day": "Friday",
            "hours": "11:50PM-4AM",
            "program": "Rnb/Hip Hop"
         }
      ]   
   },
   {
      "id":30,
      "category":"bars",
      "name":"Bar Rob Roy 1884",
      "logo":"photos/logos/bar-rob-roy-1884.jpg",
      "slug":"bar-rob-roy-1884",
      "desc": "Pod sloganom \"A bit of everything\" predstavljamo vam, zvanično prvi Jack Daniel's bar u Srbiji i regionu – RobRoy 1884 bar, beer & grill. Tokom radne nedelje muziku za vas će birati neki od najpopularnijih lokalnih funk, soul i pop DJ – eva dok su petak i subota rezervisani za domaće pop - rok, funk i soul grupe. Rezervisite Vase mesto na vreme.",
      "address": "Address: Karađorđeva 2-5, Belgrade 11000",
      "lat": "",
      "lng": "",
      "events": [
         {
            "day": "Friday",
            "hours": "11:50PM-4AM",
            "program": "Rnb/Hip Hop"
         },
         {
            "day": "Friday",
            "hours": "11:50PM-4AM",
            "program": "Rnb/Hip Hop"
         },
         {
            "day": "Friday",
            "hours": "11:50PM-4AM",
            "program": "Rnb/Hip Hop"
         }
      ]   
   },
   {
      "id":31,
      "category":"bars",
      "name":"Pivara",
      "logo":"photos/logos/pivara.jpg",
      "slug":"pivara",
      "desc": "PIVO NIKAD NIJE JEDNO!!! Na mestu gde se rodila čuvena jugoslovenska beogradska industrija piva poznatija pod akronimom „BIP\" smeštena je \"Pivara\", mesto gde ćete u srcu Beograda moći da provodite vreme od podneva do samog ulaska u duboku noć uz čak 15 vrsta piva i muzički program ovog četvrtka od 20h. Rezervacije besplatne ali obavezne!",
      "address": "Address: Karađorđeva 2-5, Belgrade 11000",
      "lat": "",
      "lng": "",
      "events": [
         {
            "day": "Friday",
            "hours": "11:50PM-4AM",
            "program": "Rnb/Hip Hop"
         },
         {
            "day": "Friday",
            "hours": "11:50PM-4AM",
            "program": "Rnb/Hip Hop"
         },
         {
            "day": "Friday",
            "hours": "11:50PM-4AM",
            "program": "Rnb/Hip Hop"
         }
      ]   
   },
   {
      "id":32,
      "category":"bars",
      "name":"Bar Shootiranje",
      "logo":"photos/logos/bar-shootiranje.jpg",
      "slug":"bar-shootiranje",
      "desc": "Lorem ipsum dolor sit amet, consectetur adipisicing elit. Labore, amet nam a, quam delectus reiciendis sit nobis veritatis? Vitae voluptatem porro, optio eius fugit vero corporis. Alias provident, dolorum a!",
      "address": "Address: Karađorđeva 2-5, Belgrade 11000",
      "lat": "",
      "lng": "",
      "events": [
         {
            "day": "Friday",
            "hours": "11:50PM-4AM",
            "program": "Rnb/Hip Hop"
         },
         {
            "day": "Friday",
            "hours": "11:50PM-4AM",
            "program": "Rnb/Hip Hop"
         },
         {
            "day": "Friday",
            "hours": "11:50PM-4AM",
            "program": "Rnb/Hip Hop"
         }
      ]   
   },
   {
      "id":33,
      "category":"bars",
      "name":"Informbiro Bar",
      "logo":"photos/logos/informbiro-bar.jpg",
      "slug":"informbiro-bar",
      "desc": "Lorem ipsum dolor sit amet, consectetur adipisicing elit. Labore, amet nam a, quam delectus reiciendis sit nobis veritatis? Vitae voluptatem porro, optio eius fugit vero corporis. Alias provident, dolorum a!",
      "address": "Address: Karađorđeva 2-5, Belgrade 11000",
      "lat": "",
      "lng": "",
      "events": [
         {
            "day": "Friday",
            "hours": "11:50PM-4AM",
            "program": "Rnb/Hip Hop"
         },
         {
            "day": "Friday",
            "hours": "11:50PM-4AM",
            "program": "Rnb/Hip Hop"
         },
         {
            "day": "Friday",
            "hours": "11:50PM-4AM",
            "program": "Rnb/Hip Hop"
         }
      ]   
   },
   {
      "id":34,
      "category":"bars",
      "name":"Square Five",
      "logo":"photos/logos/square-five.jpg",
      "slug":"square-five",
      "desc": "Lorem ipsum dolor sit amet, consectetur adipisicing elit. Labore, amet nam a, quam delectus reiciendis sit nobis veritatis? Vitae voluptatem porro, optio eius fugit vero corporis. Alias provident, dolorum a!",
      "address": "Address: Karađorđeva 2-5, Belgrade 11000",
      "lat": "",
      "lng": "",
      "events": [
         {
            "day": "Friday",
            "hours": "11:50PM-4AM",
            "program": "Rnb/Hip Hop"
         },
         {
            "day": "Friday",
            "hours": "11:50PM-4AM",
            "program": "Rnb/Hip Hop"
         },
         {
            "day": "Friday",
            "hours": "11:50PM-4AM",
            "program": "Rnb/Hip Hop"
         }
      ]   
   },
   {
      "id":36,
      "category":"bars",
      "name":"Koks Energy Bar",
      "logo":"photos/logos/koks-energy-bar.jpg",
      "slug":"koks-energy-bar",
      "desc": "Lorem ipsum dolor sit amet, consectetur adipisicing elit. Labore, amet nam a, quam delectus reiciendis sit nobis veritatis? Vitae voluptatem porro, optio eius fugit vero corporis. Alias provident, dolorum a!",
      "address": "Address: Karađorđeva 2-5, Belgrade 11000",
      "lat": "",
      "lng": "",
      "events": [
         {
            "day": "Friday",
            "hours": "11:50PM-4AM",
            "program": "Rnb/Hip Hop"
         },
         {
            "day": "Friday",
            "hours": "11:50PM-4AM",
            "program": "Rnb/Hip Hop"
         },
         {
            "day": "Friday",
            "hours": "11:50PM-4AM",
            "program": "Rnb/Hip Hop"
         }
      ]   
   },
   {
      "id":39,
      "category":"bars",
      "name":"Witch Bar",
      "logo":"photos/logos/witch-bar.jpg",
      "slug":"witch-bar",
      "desc": "Lorem ipsum dolor sit amet, consectetur adipisicing elit. Labore, amet nam a, quam delectus reiciendis sit nobis veritatis? Vitae voluptatem porro, optio eius fugit vero corporis. Alias provident, dolorum a!",
      "address": "Address: Karađorđeva 2-5, Belgrade 11000",
      "lat": "",
      "lng": "",
      "events": [
         {
            "day": "Friday",
            "hours": "11:50PM-4AM",
            "program": "Rnb/Hip Hop"
         },
         {
            "day": "Friday",
            "hours": "11:50PM-4AM",
            "program": "Rnb/Hip Hop"
         },
         {
            "day": "Friday",
            "hours": "11:50PM-4AM",
            "program": "Rnb/Hip Hop"
         }
      ]   
   },
   {
      "id":311,
      "category":"bars",
      "name":"Tranzit Bar",
      "logo":"photos/logos/tranzit-bar.jpg",
      "slug":"tranzit-bar",
      "desc": "Lorem ipsum dolor sit amet, consectetur adipisicing elit. Labore, amet nam a, quam delectus reiciendis sit nobis veritatis? Vitae voluptatem porro, optio eius fugit vero corporis. Alias provident, dolorum a!",
      "address": "Address: Karađorđeva 2-5, Belgrade 11000",
      "lat": "",
      "lng": "",
      "events": [
         {
            "day": "Friday",
            "hours": "11:50PM-4AM",
            "program": "Rnb/Hip Hop"
         },
         {
            "day": "Friday",
            "hours": "11:50PM-4AM",
            "program": "Rnb/Hip Hop"
         },
         {
            "day": "Friday",
            "hours": "11:50PM-4AM",
            "program": "Rnb/Hip Hop"
         }
      ]   
   },
   {
      "id":317,
      "category":"bars",
      "name":"Toxic Bar",
      "logo":"photos/logos/toxic-bar.jpg",
      "slug":"toxic-bar",
      "desc": "Lorem ipsum dolor sit amet, consectetur adipisicing elit. Labore, amet nam a, quam delectus reiciendis sit nobis veritatis? Vitae voluptatem porro, optio eius fugit vero corporis. Alias provident, dolorum a!",
      "address": "Address: Karađorđeva 2-5, Belgrade 11000",
      "lat": "",
      "lng": "",
      "events": [
         {
            "day": "Friday",
            "hours": "11:50PM-4AM",
            "program": "Rnb/Hip Hop"
         },
         {
            "day": "Friday",
            "hours": "11:50PM-4AM",
            "program": "Rnb/Hip Hop"
         },
         {
            "day": "Friday",
            "hours": "11:50PM-4AM",
            "program": "Rnb/Hip Hop"
         }
      ]   
   },
   {
      "id":319,
      "category":"bars",
      "name":"Pub 23 Bar",
      "logo":"photos/logos/pub-23-bar.jpg",
      "slug":"pub-23-bar",
      "desc": "Lorem ipsum dolor sit amet, consectetur adipisicing elit. Labore, amet nam a, quam delectus reiciendis sit nobis veritatis? Vitae voluptatem porro, optio eius fugit vero corporis. Alias provident, dolorum a!",
      "address": "Address: Karađorđeva 2-5, Belgrade 11000",
      "lat": "",
      "lng": "",
      "events": [
         {
            "day": "Friday",
            "hours": "11:50PM-4AM",
            "program": "Rnb/Hip Hop"
         },
         {
            "day": "Friday",
            "hours": "11:50PM-4AM",
            "program": "Rnb/Hip Hop"
         },
         {
            "day": "Friday",
            "hours": "11:50PM-4AM",
            "program": "Rnb/Hip Hop"
         }
      ]   
   },
   {
      "id":320,
      "category":"bars",
      "name":"Bar Hugo",
      "logo":"photos/logos/bar-hugo.jpg",
      "slug":"bar-hugo",
      "desc": "Lorem ipsum dolor sit amet, consectetur adipisicing elit. Labore, amet nam a, quam delectus reiciendis sit nobis veritatis? Vitae voluptatem porro, optio eius fugit vero corporis. Alias provident, dolorum a!",
      "address": "Address: Karađorđeva 2-5, Belgrade 11000",
      "lat": "",
      "lng": "",
      "events": [
         {
            "day": "Friday",
            "hours": "11:50PM-4AM",
            "program": "Rnb/Hip Hop"
         },
         {
            "day": "Friday",
            "hours": "11:50PM-4AM",
            "program": "Rnb/Hip Hop"
         },
         {
            "day": "Friday",
            "hours": "11:50PM-4AM",
            "program": "Rnb/Hip Hop"
         }
      ]   
   },
   {
      "id":321,
      "category":"bars",
      "name":"No Stress Bar",
      "logo":"photos/logos/no-stress-bar.jpg",
      "slug":"no-stress-bar",
      "desc": "Lorem ipsum dolor sit amet, consectetur adipisicing elit. Labore, amet nam a, quam delectus reiciendis sit nobis veritatis? Vitae voluptatem porro, optio eius fugit vero corporis. Alias provident, dolorum a!",
      "address": "Address: Karađorđeva 2-5, Belgrade 11000",
      "lat": "",
      "lng": "",
      "events": [
         {
            "day": "Friday",
            "hours": "11:50PM-4AM",
            "program": "Rnb/Hip Hop"
         },
         {
            "day": "Friday",
            "hours": "11:50PM-4AM",
            "program": "Rnb/Hip Hop"
         },
         {
            "day": "Friday",
            "hours": "11:50PM-4AM",
            "program": "Rnb/Hip Hop"
         }
      ]   
   },
   {
      "id":40,
      "category":"restaurant",
      "name":"Restoran Stanica 1884",
      "logo":"photos/logos/restoran-stanica-1884.jpg",
      "slug":"restoran-stanica-1884",
      "desc": "U sklopu zgrade glavne Železničke stanice Beograd očekuje vas restoran Stanica 1884. Moderan dizajn sa primesom tradicionalnih elemenata, sjajna gurmanska kuhinja, vinska karta koja broji preko 110 različitih vrsta vina i uživo svirka od 20h do 00h su više nego dovoljni razlozi da rezervišite svoje mesto i uverite se sami u kvalitet restorana Stanica 1884.",
      "address": "Address: Karađorđeva 2-5, Belgrade 11000",
      "lat": "",
      "lng": "",
      "events": [
         {
            "day": "Friday",
            "hours": "11:50PM-4AM",
            "program": "Rnb/Hip Hop"
         },
         {
            "day": "Friday",
            "hours": "11:50PM-4AM",
            "program": "Rnb/Hip Hop"
         },
         {
            "day": "Friday",
            "hours": "11:50PM-4AM",
            "program": "Rnb/Hip Hop"
         }
      ]   
   },
   {
      "id":41,
      "category":"restaurant",
      "name":"Restaurant Tri Šešira",
      "logo":"photos/logos/restaurant-tri-sesira.jpg",
      "slug":"restaurant-tri-sesira",
      "desc": "Restoran Kafana Tri šešira je jedan od najstarijih restorana u Skadarliji, boemskoj četvrti Beograda. Svake večeri vas tamburaši zabavljaju uz starogradsku muziku, pa je uživanje u večeri potpuno. Rezervacije su obavezne.\n\n",
      "address": "Address: Karađorđeva 2-5, Belgrade 11000",
      "lat": "",
      "lng": "",
      "events": [
         {
            "day": "Friday",
            "hours": "11:50PM-4AM",
            "program": "Rnb/Hip Hop"
         },
         {
            "day": "Friday",
            "hours": "11:50PM-4AM",
            "program": "Rnb/Hip Hop"
         },
         {
            "day": "Friday",
            "hours": "11:50PM-4AM",
            "program": "Rnb/Hip Hop"
         }
      ]   
   },
   {
      "id":42,
      "category":"restaurant",
      "name":"Restoran Zlatni Bokal",
      "logo":"photos/logos/restoran-zlatni-bokal.jpg",
      "slug":"restoran-zlatni-bokal",
      "desc": "Lorem ipsum dolor sit amet, consectetur adipisicing elit. Labore, amet nam a, quam delectus reiciendis sit nobis veritatis? Vitae voluptatem porro, optio eius fugit vero corporis. Alias provident, dolorum a!",
      "lat": "",
      "lng": "",
      "events": [
         {
            "day": "Friday",
            "hours": "11:50PM-4AM",
            "program": "Rnb/Hip Hop"
         },
         {
            "day": "Friday",
            "hours": "11:50PM-4AM",
            "program": "Rnb/Hip Hop"
         },
         {
            "day": "Friday",
            "hours": "11:50PM-4AM",
            "program": "Rnb/Hip Hop"
         }
      ]   
   },
   {
      "id":43,
      "category":"restaurant",
      "name":"Restoran Dva Jelena",
      "logo":"photos/logos/restoran-dva-jelena.jpg",
      "slug":"restoran-dva-jelena",
      "desc": "Kafana Dva jelena je jedna od najstarijih kafana u Skadarliji, boemskoj četvrti Beograda. Svake večeri vas tamburaši zabavljaju uz starogradsku muziku, pa je uživanje u večeri potpuno. Rezervacije su obavezne.\n\n",
      "lat": "",
      "lng": "",
      "events": [
         {
            "day": "Friday",
            "hours": "11:50PM-4AM",
            "program": "Rnb/Hip Hop"
         },
         {
            "day": "Friday",
            "hours": "11:50PM-4AM",
            "program": "Rnb/Hip Hop"
         },
         {
            "day": "Friday",
            "hours": "11:50PM-4AM",
            "program": "Rnb/Hip Hop"
         }
      ]   
   },
   {
      "id":44,
      "category":"restaurant",
      "name":"Restoran Solunac",
      "logo":"photos/logos/restoran-solunac.jpg",
      "slug":"restoran-solunac",
      "desc": "Lorem ipsum dolor sit amet, consectetur adipisicing elit. Labore, amet nam a, quam delectus reiciendis sit nobis veritatis? Vitae voluptatem porro, optio eius fugit vero corporis. Alias provident, dolorum a!",
      "lat": "",
      "lng": "",
      "events": [
         {
            "day": "Friday",
            "hours": "11:50PM-4AM",
            "program": "Rnb/Hip Hop"
         },
         {
            "day": "Friday",
            "hours": "11:50PM-4AM",
            "program": "Rnb/Hip Hop"
         },
         {
            "day": "Friday",
            "hours": "11:50PM-4AM",
            "program": "Rnb/Hip Hop"
         }
      ]   
   },
   {
      "id":45,
      "category":"restaurant",
      "name":"Restoran Tesla",
      "logo":"photos/logos/restoran-tesla.jpg",
      "slug":"restoran-tesla",
      "desc": "Lorem ipsum dolor sit amet, consectetur adipisicing elit. Labore, amet nam a, quam delectus reiciendis sit nobis veritatis? Vitae voluptatem porro, optio eius fugit vero corporis. Alias provident, dolorum a!",
      "address": "Address: Karađorđeva 2-5, Belgrade 11000",
      "lat": "",
      "lng": "",
      "events": [
         {
            "day": "Friday",
            "hours": "11:50PM-4AM",
            "program": "Rnb/Hip Hop"
         },
         {
            "day": "Friday",
            "hours": "11:50PM-4AM",
            "program": "Rnb/Hip Hop"
         },
         {
            "day": "Friday",
            "hours": "11:50PM-4AM",
            "program": "Rnb/Hip Hop"
         }
      ]   
   },
   {
      "id":46,
      "category":"restaurant",
      "name":"Restoran Šapat",
      "logo":"photos/logos/restoran-sapat.jpg",
      "slug":"restoran-sapat",
      "desc": "Lorem ipsum dolor sit amet, consectetur adipisicing elit. Labore, amet nam a, quam delectus reiciendis sit nobis veritatis? Vitae voluptatem porro, optio eius fugit vero corporis. Alias provident, dolorum a!",
      "address": "Address: Karađorđeva 2-5, Belgrade 11000",
      "lat": "",
      "lng": "",
      "events": [
         {
            "day": "Friday",
            "hours": "11:50PM-4AM",
            "program": "Rnb/Hip Hop"
         },
         {
            "day": "Friday",
            "hours": "11:50PM-4AM",
            "program": "Rnb/Hip Hop"
         },
         {
            "day": "Friday",
            "hours": "11:50PM-4AM",
            "program": "Rnb/Hip Hop"
         }
      ]   
   }
]